[
  {
    "id": "5a11bd074a84b000144958a2",
    "name": "De Goeie Goeste",
    "street": "Tweekapellenstraat",
    "municipality": "9050 Gentbrugge",
    "vegi": "",
    "lat": 51.0441,
    "lng": 3.7527
  },
  {
    "id": "5a109827a29a770014c6b61c",
    "name": "De gouden sat√©",
    "street": "Sint-Pietersplein",
    "municipality": "9000 Gent",
    "vegi": "",
    "lat": 51.0414,
    "lng": 3.7255
  },
  {
    "id": "5a109828a29a770014c6b61e",
    "name": "Frietboetiek Melle",
    "street": "Merelbekestraat",
    "municipality": "9090 Melle",
    "vegi": "",
    "lat": 51.019,
    "lng": 3.7695
  },
  {
    "id": "5a109632a29a770014c6b616",
    "name": "Frietshop Heusden",
    "street": "Zandakkerlaan",
    "municipality": "9070 Heusden",
    "vegi": "",
    "lat": 51.0289,
    "lng": 3.801
  },
  {
    "id": "5a109827a29a770014c6b61b",
    "name": "Frituur St Jacobs Sympa",
    "street": "Bij Sint-Jacobs",
    "municipality": "9000 Gent",
    "vegi": "",
    "lat": 51.056,
    "lng": 3.7275
  },
  {
    "id": "5a11bd064a84b000144958a0",
    "name": "New Frietshop",
    "street": "Schooldreef",
    "municipality": "9050 Gentbrugge",
    "vegi": "",
    "lat": 51.0321,
    "lng": 3.7611
  }
]
